City_ID,City,Lat,Lng,Max Temp,Humidity,Cloudiness,Wind Speed,Country,Date
0,Barrow,71.2906,-156.7887,15.82,73,0,10.36,US,1650419112
1,Hamilton,39.1834,-84.5333,45.23,66,68,1.01,US,1650419038
2,Nuevo Progreso,23.1667,-97.95,76.53,71,6,1.01,MX,1650419112
3,Taoudenni,22.6783,-3.9836,78.82,10,100,1.81,ML,1650419113
4,Salalah,17.0151,54.0924,78.89,78,20,0.0,OM,1650419113
5,Mount Gambier,-37.8333,140.7667,58.91,82,75,9.22,AU,1650418877
6,Saskylakh,71.9167,114.0833,7.74,91,69,6.93,RU,1650419113
7,Margosatubig,7.5777,123.1658,86.2,69,100,4.94,PH,1650419114
8,Bariloche,-41.1456,-71.3082,46.15,71,75,6.91,AR,1650418816
9,Aripuanã,-9.1667,-60.6333,73.38,96,76,1.1,BR,1650419114
10,Bredasdorp,-34.5322,20.0403,59.02,85,18,4.74,ZA,1650418871
11,Tete,-16.1564,33.5867,69.89,78,40,4.61,MZ,1650419115
12,Jarville-la-Malgrange,48.6691,6.2064,51.48,66,0,4.61,FR,1650419115
13,Mandalgovi,45.7625,106.2708,49.17,43,56,20.49,MN,1650419116
14,Hermanus,-34.4187,19.2345,62.8,60,42,9.13,ZA,1650419116
15,Cape Town,-33.9258,18.4232,75.11,82,0,5.75,ZA,1650418963
16,Yar-Sale,66.8333,70.8333,20.46,85,63,23.38,RU,1650419116
17,Lorengau,-2.0226,147.2712,86.04,67,35,11.63,PG,1650419117
18,Vaini,-21.2,-175.2,78.96,89,100,8.05,TO,1650419117
19,Sukhumi,43.0033,41.0153,52.65,99,100,4.09,GE,1650419117
20,Busselton,-33.65,115.3333,64.56,56,3,10.11,AU,1650419118
21,Guerrero Negro,27.9769,-114.0611,62.33,78,45,16.82,MX,1650418861
22,Upernavik,72.7868,-56.1549,-7.15,99,94,6.35,GL,1650419118
23,Hithadhoo,-0.6,73.0833,82.44,71,41,3.09,MV,1650419119
24,Chokurdakh,70.6333,147.9167,22.6,89,97,5.77,RU,1650419119
25,Carnarvon,-24.8667,113.6333,78.87,47,66,12.66,AU,1650418960
26,Tura,25.5198,90.2201,70.99,87,94,4.43,IN,1650419119
27,Ushuaia,-54.8,-68.3,46.06,66,40,14.97,AR,1650418964
28,Ipswich,52.0592,1.1555,48.02,88,20,9.22,GB,1650419120
29,Vila Velha,-20.3297,-40.2925,75.15,78,20,2.3,BR,1650418870
30,Touros,-5.1989,-35.4608,79.23,78,13,11.1,BR,1650419120
31,Saint-Philippe,-21.3585,55.7679,76.59,81,47,3.51,RE,1650419121
32,Richards Bay,-28.783,32.0377,61.25,87,3,3.8,ZA,1650419121
33,Punta Arenas,-53.15,-70.9167,42.91,75,75,23.02,CL,1650419121
34,Qaanaaq,77.484,-69.3632,-6.7,86,100,6.17,GL,1650419122
35,Khatanga,71.9667,102.5,6.01,92,64,5.53,RU,1650418957
36,Vao,-22.6667,167.4833,75.78,69,0,6.46,NC,1650419122
37,Atuona,-9.8,-139.0333,79.3,72,23,16.24,PF,1650419122
38,Paamiut,61.994,-49.6678,16.86,71,3,22.03,GL,1650419123
39,Gizo Government Station,-8.103,156.8419,84.24,70,100,3.8,SB,1650419123
40,Sharjah city,25.3573,55.4033,73.38,88,0,6.91,AE,1650418958
41,Knin,44.0439,16.2,45.12,95,100,8.3,HR,1650419124
42,Talaya,61.3833,152.75,23.41,68,26,4.85,RU,1650419124
43,Port Hardy,50.6996,-127.4199,48.38,71,75,5.75,CA,1650419124
44,Concarneau,47.875,-3.9225,47.19,92,67,9.37,FR,1650419125
45,Banjar,-8.19,114.9675,78.82,91,100,4.41,ID,1650419125
46,Castro,-24.7911,-50.0119,55.26,92,0,3.74,BR,1650419125
47,Rikitea,-23.1203,-134.9692,77.5,76,2,14.97,PF,1650419126
48,Ponta do Sol,32.6667,-17.1,61.72,61,11,9.37,PT,1650419126
49,Avarua,-21.2078,-159.775,78.85,78,100,8.05,CK,1650419126
50,Hilo,19.7297,-155.09,80.28,76,100,11.5,US,1650419012
51,Pringsewu,-5.3582,104.9744,81.32,77,100,2.48,ID,1650419127
52,Longyearbyen,78.2186,15.6401,24.64,80,75,2.3,SJ,1650419127
53,Puerto Ayora,-0.7393,-90.3518,74.55,89,100,5.68,EC,1650419127
54,Laas,46.6166,10.7002,49.08,91,27,4.12,IT,1650419128
55,Katrineholm,58.9959,16.2072,40.89,74,0,4.76,SE,1650419128
56,Bengkulu,-3.8004,102.2655,79.5,82,100,4.27,ID,1650419128
57,Sarangani,5.4033,125.4636,82.67,75,85,15.73,PH,1650419129
58,Taldan,53.6667,124.8,38.59,50,100,5.41,RU,1650419129
59,Torbay,47.6666,-52.7314,29.57,85,75,16.11,CA,1650419129
60,Praia,14.9215,-23.5087,70.34,78,20,18.41,CV,1650419130
61,Norman Wells,65.282,-126.8329,35.64,35,0,8.05,CA,1650419130
62,Yulara,-25.2406,130.9889,67.84,30,14,16.11,AU,1650419130
63,Kamenka,51.3223,42.7678,54.63,76,98,7.09,RU,1650419131
64,Codrington,-38.2667,141.9667,61.2,66,73,15.28,AU,1650419131
65,Barreirinhas,-2.7469,-42.8264,76.41,91,97,4.32,BR,1650419131
66,Ramenskoye,55.5669,38.2303,43.34,87,0,8.99,RU,1650419132
67,Date,42.4681,140.8681,50.47,53,0,3.06,JP,1650419132
68,Anadyr,64.75,177.4833,34.3,80,0,17.9,RU,1650419132
69,Jamestown,42.097,-79.2353,36.99,60,100,18.41,US,1650419019
70,Killarney,52.05,-9.5167,39.22,93,2,0.34,IE,1650419133
71,Bluff,-46.6,168.3333,63.81,64,100,5.32,NZ,1650419133
72,Tiksi,71.6872,128.8694,10.6,94,100,5.75,RU,1650419133
73,Hobart,-42.8794,147.3294,63.05,51,20,19.57,AU,1650419098
74,Homer,59.6425,-151.5483,45.81,40,0,5.75,US,1650419134
75,Lábrea,-7.2586,-64.7981,74.71,93,100,1.21,BR,1650419134
76,Yellowknife,62.456,-114.3525,30.72,34,0,6.91,CA,1650419134
77,Nouadhibou,20.931,-17.0347,66.18,88,99,12.66,MR,1650419135
78,Mar del Plata,-38.0023,-57.5575,63.88,93,0,8.99,AR,1650419135
79,Kapaa,22.0752,-159.319,82.38,75,20,18.41,US,1650418964
80,Port Elizabeth,-33.918,25.5701,64.69,95,0,10.36,ZA,1650419135
81,Albany,42.6001,-73.9662,39.92,70,70,1.01,US,1650418996
82,Pedernales,18.0384,-71.744,79.2,73,12,3.49,DO,1650419136
83,Humberto de Campos,-2.5983,-43.4611,75.83,92,100,3.56,BR,1650419136
84,São Filipe,14.8961,-24.4956,70.56,83,90,3.98,CV,1650419136
85,Eyl,7.9803,49.8164,79.59,73,76,7.56,SO,1650419137
86,Cidreira,-30.1811,-50.2056,66.76,83,0,8.75,BR,1650419137
87,San Patricio,28.017,-97.5169,75.88,82,100,16.62,US,1650419138
88,Saint-Prosper,46.2117,-70.4811,34.09,87,99,13.18,CA,1650419138
89,Laguna,38.421,-121.4238,67.6,44,0,10.36,US,1650419138
90,Pisco,-13.7,-76.2167,65.01,88,0,18.41,PE,1650419139
91,Pangnirtung,66.1451,-65.7125,2.26,78,100,7.11,CA,1650419139
92,Ambulu,-8.345,113.6058,77.99,88,100,1.83,ID,1650419139
93,Thompson,55.7435,-97.8558,30.36,64,75,6.91,CA,1650419139
94,Kologriv,58.8275,44.3178,34.9,95,91,5.93,RU,1650419140
95,Geraldton,-28.7667,114.6,75.61,33,92,11.5,AU,1650419140
96,Souillac,-20.5167,57.5167,77.38,100,75,6.91,MU,1650419140
97,Khilok,51.3674,110.4676,34.34,39,14,13.11,RU,1650419141
98,Hokitika,-42.7167,170.9667,62.65,95,100,8.43,NZ,1650419141
99,Solnechnyy,50.7214,136.6319,52.36,70,100,11.27,RU,1650419141
100,Altamont,42.2068,-121.7372,43.9,60,0,19.57,US,1650419142
101,Danielskuil,-28.1887,23.5395,54.34,65,5,6.33,ZA,1650419142
102,Nikolskoye,59.7035,30.7861,39.7,93,91,5.26,RU,1650419143
103,Paján,-1.5667,-80.4167,74.23,94,87,3.22,EC,1650419143
104,Mount Isa,-20.7333,139.5,85.77,21,76,11.5,AU,1650419143
105,Filiatrá,37.15,21.5833,51.69,70,30,2.24,GR,1650419144
106,Mataura,-46.1927,168.8643,63.48,56,100,3.62,NZ,1650419144
107,Port Alfred,-33.5906,26.891,65.17,91,59,1.01,ZA,1650419144
108,Tasiilaq,65.6145,-37.6368,32.16,91,100,10.65,GL,1650419144
109,Tondano,1.3038,124.9112,78.89,59,92,1.99,ID,1650419145
110,Paita,-5.0892,-81.1144,69.31,77,97,13.04,PE,1650419145
111,Dunedin,-45.8742,170.5036,57.79,76,100,5.01,NZ,1650419145
112,Butaritari,3.0707,172.7902,81.84,73,77,14.81,KI,1650419146
113,Härnösand,62.6323,17.9379,30.22,75,20,1.41,SE,1650419146
114,Bethel,41.3712,-73.414,44.91,63,20,9.22,US,1650419146
115,Lakes Entrance,-37.8811,147.981,68.16,55,0,12.46,AU,1650419147
116,Guánica,17.9716,-66.908,79.11,88,99,12.55,PR,1650419147
117,Khandyga,62.6667,135.6,32.29,82,100,7.11,RU,1650419147
118,Taksimo,56.3444,114.8794,27.86,48,96,3.53,RU,1650418877
119,Gazli,40.1333,63.45,58.64,73,73,8.68,UZ,1650419148
120,Esperance,-33.8667,121.9,60.64,59,91,5.95,AU,1650419148
121,Nur-Sultan,51.1801,71.446,46.35,71,40,8.95,KZ,1650418871
122,Kutum,14.2,24.6667,76.05,14,100,11.68,SD,1650419149
123,Mana,5.6592,-53.7767,77.45,88,100,8.01,GF,1650419149
124,Iqaluit,63.7506,-68.5145,8.33,66,75,9.22,CA,1650419149
125,Ayan,56.45,138.1667,31.66,91,100,11.95,RU,1650419117
126,Flinders,-34.5833,150.8552,75.38,58,0,7.0,AU,1650419150
127,Kloulklubed,7.0419,134.2556,81.1,78,77,13.42,PW,1650419150
128,Lebu,-37.6167,-73.65,53.98,91,85,7.27,CL,1650419151
129,Fortuna,40.5982,-124.1573,56.32,54,75,9.22,US,1650418905
130,Maxixe,-23.8597,35.3472,71.26,93,93,9.51,MZ,1650419151
131,Bonavista,48.6499,-53.1147,29.77,76,100,19.17,CA,1650419151
132,Ilulissat,69.2167,-51.1,-0.38,65,75,5.75,GL,1650419152
133,Young,-32.6833,-57.6333,62.08,81,99,4.81,UY,1650419152
134,Jalu,29.0331,21.5482,56.3,63,0,7.31,LY,1650419152
135,Chui,-33.6971,-53.4616,61.92,93,57,6.78,UY,1650419153
136,Buenavista,8.9769,125.4089,86.18,66,88,4.41,PH,1650419153
137,Macao,22.2006,113.5461,67.86,83,40,9.22,MO,1650419154
138,Luang Prabang,19.8856,102.1347,71.56,100,100,0.0,LA,1650419154
139,Saint-Pierre,-21.3393,55.4781,76.68,81,0,4.61,RE,1650419154
140,Arroyo de la Encomienda,41.6096,-4.7969,41.14,83,0,10.36,ES,1650419155
141,Mahébourg,-20.4081,57.7,78.26,100,75,6.91,MU,1650419155
142,Bilma,18.6853,12.9164,75.51,14,7,6.93,NE,1650419155
143,Saint-Michel-des-Saints,46.6834,-73.9159,33.94,98,100,9.35,CA,1650419156
144,Arraial do Cabo,-22.9661,-42.0278,64.36,94,20,0.0,BR,1650419156
145,Imeni Morozova,59.9757,31.0376,39.85,95,76,5.37,RU,1650419156
146,Ulladulla,-35.35,150.4667,70.7,61,4,5.97,AU,1650419157
147,Zeya,53.75,127.2667,43.12,56,100,4.23,RU,1650419157
148,Hambantota,6.1241,81.1185,79.14,100,20,2.3,LK,1650419157
149,Ribeira Grande,38.5167,-28.7,60.19,67,48,8.68,PT,1650419158
150,Cherskiy,68.75,161.3,31.28,81,23,11.63,RU,1650418927
151,Cabo San Lucas,22.8909,-109.9124,77.61,68,0,11.68,MX,1650419158
152,Yuancheng,36.652,107.7896,57.78,33,0,13.98,CN,1650419158
153,Sumbe,-11.2061,13.8437,77.41,93,100,6.26,AO,1650419159
154,Mareeba,-17.0,145.4333,83.44,72,70,6.91,AU,1650419159
155,Belozërskoye,55.8214,65.5842,36.99,86,97,2.55,RU,1650419160
156,Iquitos,-3.7481,-73.2472,75.24,94,20,2.3,PE,1650419160
157,Monterey,36.2505,-121.2516,59.18,49,65,11.54,US,1650419160
158,Manicoré,-5.8092,-61.3003,73.69,98,100,2.08,BR,1650419161
159,Nanortalik,60.1432,-45.2371,24.22,56,0,27.58,GL,1650419161
160,Kulhudhuffushi,6.6221,73.07,84.22,73,86,9.44,MV,1650419161
161,Bareilly,28.35,79.4167,87.39,19,3,3.94,IN,1650419161
162,Monteagudo,-19.8167,-63.9833,58.64,94,1,2.48,BO,1650419162
163,Dikson,73.5069,80.5464,9.45,91,100,3.4,RU,1650419162
164,Biak,-0.9131,122.8766,83.88,67,93,1.81,ID,1650419163
165,Airai,-8.9266,125.4092,74.59,47,81,2.21,TL,1650419163
166,Natagaima,3.6206,-75.0941,71.38,98,100,3.04,CO,1650419163
167,Oriximiná,-1.7656,-55.8661,75.85,94,76,1.45,BR,1650419164
168,Ahualulco del Sonido Trece,22.4,-101.1667,69.62,58,2,19.13,MX,1650419164
169,Sawākin,19.1059,37.3321,80.98,84,21,9.51,SD,1650419165
170,Santiago,-33.4569,-70.6483,63.28,59,75,6.91,CL,1650419024
171,Hong Kong,22.2855,114.1577,70.25,86,100,4.0,HK,1650419162
172,Katsuura,35.1333,140.3,53.62,90,100,9.73,JP,1650419165
173,Wollongong,-34.4333,150.8833,75.25,57,0,4.05,AU,1650419100
174,Storforshei,66.4043,14.5233,35.65,93,69,0.0,NO,1650419165
175,Fuerte Olimpo,-21.0415,-57.8738,72.5,54,0,4.29,PY,1650419166
176,Cap Malheureux,-19.9842,57.6142,78.48,88,15,5.01,MU,1650419166
177,High Level,58.5169,-117.136,32.11,37,40,8.05,CA,1650419166
178,Acapulco de Juárez,16.8634,-99.8901,82.22,69,40,8.05,MX,1650418992
179,Kailua,21.4022,-157.7394,78.78,69,100,18.41,US,1650419167
180,Tungor,53.3808,142.9564,40.05,89,100,1.12,RU,1650419167
181,Kaitangata,-46.2817,169.8464,65.55,53,100,4.36,NZ,1650419168
182,Alice Springs,-23.7,133.8833,69.22,32,3,10.36,AU,1650418887
183,Rossano,39.5751,16.6349,46.13,52,31,7.52,IT,1650419168
184,Assiut,27.181,31.1837,64.58,53,6,14.32,EG,1650419168
185,Ahipara,-35.1667,173.1667,73.08,74,13,12.08,NZ,1650419169
186,Mollendo,-17.0231,-72.0147,66.4,83,92,5.32,PE,1650419169
187,Pevek,69.7008,170.3133,25.79,81,35,3.33,RU,1650418917
188,Fairbanks,64.8378,-147.7164,46.24,27,0,10.36,US,1650419102
189,Havøysund,70.9963,24.6622,35.83,87,37,7.43,NO,1650419170
190,Misratah,32.3754,15.0925,60.06,70,50,14.63,LY,1650419170
191,Benghazi,32.1167,20.0667,58.28,67,0,3.2,LY,1650419170
192,Aguada de Pasajeros,22.385,-80.8508,76.14,72,0,11.34,CU,1650419171
193,Eucaliptus,-17.5833,-67.5167,47.77,67,16,0.92,BO,1650419171
194,Serdobsk,52.4586,44.2169,54.1,74,100,7.02,RU,1650419171
195,Ostrovnoy,68.0531,39.5131,30.6,75,100,7.76,RU,1650419172
196,Kasongo-Lunda,-6.4667,16.8167,69.93,98,100,1.14,CD,1650419172
197,Mińsk Mazowiecki,52.1794,21.5725,44.38,81,100,7.61,PL,1650419172
198,Aksarka,66.5606,67.7975,23.5,89,61,8.9,RU,1650419173
199,Lafia,8.4833,8.5167,78.28,76,100,3.18,NG,1650419173
200,Henties Bay,-22.116,14.2845,71.08,58,22,1.95,NA,1650419173
201,Ashland,40.8167,-82.2665,39.74,68,24,11.32,US,1650419041
202,Sur,22.5667,59.5289,79.65,65,0,8.75,OM,1650419174
203,Bom Jesus,-9.0744,-44.3586,75.76,80,80,2.95,BR,1650419174
204,Sancti Spíritus,21.9297,-79.4425,74.43,78,0,11.1,CU,1650419175
205,New Norfolk,-42.7826,147.0587,62.71,50,80,8.01,AU,1650419175
206,Shimoda,34.6667,138.95,54.1,73,31,13.6,JP,1650419175
207,Srednekolymsk,67.45,153.6833,30.79,80,7,8.41,RU,1650419176
208,Inírida,3.8653,-67.9239,73.96,97,100,2.71,CO,1650419176
209,Emerald,-23.5333,148.1667,83.34,47,31,5.75,AU,1650419176
210,Innisfail,-17.5333,146.0333,79.59,82,58,11.65,AU,1650419105
211,East London,-33.0153,27.9116,66.04,84,15,9.28,ZA,1650419177
212,Cumpas,29.9833,-109.7833,82.47,11,100,13.38,MX,1650419177
213,Lingyuan,41.24,119.4011,71.13,19,0,16.11,CN,1650419177
214,Kiunga,-6.1219,141.2906,90.43,56,80,2.89,PG,1650419178
215,Abhar,36.1468,49.218,59.13,33,100,2.71,IR,1650419178
216,Pitimbu,-7.4706,-34.8086,77.59,83,18,6.26,BR,1650419178
217,Arlit,18.7369,7.3853,79.88,14,3,6.46,NE,1650419179
218,Nemuro,43.3236,145.575,43.74,66,4,18.54,JP,1650419179
219,Alofi,-19.0595,-169.9187,80.49,89,75,8.05,NU,1650419179
220,Mwanza,-2.5167,32.9,69.48,82,100,5.66,TZ,1650419180
221,Walvis Bay,-22.9575,14.5053,74.35,40,4,3.44,NA,1650419180
222,Kavieng,-2.5744,150.7967,85.44,65,70,11.81,PG,1650419180
223,La Palma,33.8464,-118.0467,72.21,69,40,14.97,US,1650419181
224,Vanimo,-2.6741,141.3028,83.44,78,70,4.34,PG,1650419181
225,Pyn U Lwin,22.0333,96.4667,78.57,46,10,2.84,MM,1650419091
226,Bubaque,11.2833,-15.8333,75.27,77,29,13.98,GW,1650419181
227,Bassila,9.0081,1.6654,75.83,81,81,4.25,BJ,1650419182
228,Avera,33.194,-82.5271,51.31,49,0,4.83,US,1650419182
229,Berlevåg,70.8578,29.0864,35.4,93,100,10.69,NO,1650419182
230,Pervomayskiy,53.2485,40.2871,44.98,93,100,12.5,RU,1650419183
231,Vostok,46.4856,135.8833,60.6,41,7,12.37,RU,1650419183
232,Tiznit Province,29.5833,-9.5,61.54,46,2,5.35,MA,1650419183
233,Boyolangu,-8.1181,111.8935,75.25,91,100,3.96,ID,1650419184
234,Zaozyornoye,45.1582,33.2787,46.42,72,22,16.78,UA,1650419184
235,Ofakim,31.3141,34.6203,52.72,85,21,4.72,IL,1650419184
236,Noumea,-22.2763,166.4572,82.38,69,15,8.46,NC,1650419185
237,Beloha,-25.1667,45.05,72.41,91,39,10.04,MG,1650419185
238,Pacific Grove,36.6177,-121.9166,62.71,72,0,9.22,US,1650418901
239,Alyangula,-13.8483,136.4192,89.47,62,40,6.91,AU,1650419186
240,Kahului,20.8947,-156.47,80.62,69,40,25.32,US,1650419186
241,Sioux Lookout,50.1001,-91.917,35.67,41,40,4.61,CA,1650418967
242,Port Lincoln,-34.7333,135.8667,65.89,56,63,11.77,AU,1650418912
243,Roald,62.5833,6.1333,45.75,93,0,4.61,NO,1650419186
244,George,-33.963,22.4617,54.95,100,3,4.61,ZA,1650419032
245,Rafai,4.95,23.9167,69.46,99,100,3.56,CF,1650419187
246,Zhangjiakou,40.81,114.8794,63.03,15,0,5.64,CN,1650419187
247,Dudinka,69.4058,86.1778,1.62,94,100,6.55,RU,1650419188
248,Ucluelet,48.9329,-125.5528,48.51,80,21,1.01,CA,1650419105
249,Ubari,26.5921,12.7805,66.38,24,6,9.57,LY,1650419188
250,Andenes,69.3143,16.1194,37.38,87,15,3.44,NO,1650419188
251,Voh,-20.9667,164.7,83.61,66,13,6.51,NC,1650419189
252,Kalianget,-7.05,113.9333,77.63,86,100,3.06,ID,1650419189
253,Oranjemund,-28.55,16.4333,73.67,28,0,7.05,NA,1650419189
254,Padang,-0.9492,100.3543,77.05,85,100,4.56,ID,1650419190
255,Portland,45.5234,-122.6762,49.98,80,100,8.05,US,1650418925
256,Banda Aceh,5.5577,95.3222,82.94,71,100,3.96,ID,1650419190
257,Pāveh,35.0434,46.3565,59.72,28,50,9.4,IR,1650419190
258,Hilton Head,32.2163,-80.7526,62.98,52,0,3.44,US,1650419191
259,Springdale,36.1867,-94.1288,62.33,42,0,16.11,US,1650419191
260,Sakaiminato,35.55,133.2333,67.98,30,20,3.44,JP,1650419192
261,Weligama,5.9667,80.4167,81.45,81,100,6.33,LK,1650419192
262,Belmonte,-15.8631,-38.8828,76.37,76,90,8.41,BR,1650419192
263,Maragogi,-9.0122,-35.2225,77.05,88,16,7.11,BR,1650419193
264,Salinópolis,-0.6136,-47.3561,79.16,84,100,6.89,BR,1650419193
265,Severo-Kuril'sk,50.6789,156.125,32.2,78,72,12.08,RU,1650419193
266,Khovd,48.0056,91.6419,34.61,45,63,15.99,MN,1650419194
267,Tual,-5.6667,132.75,83.48,72,51,1.81,ID,1650419194
268,San Quintín,30.4833,-115.95,62.62,75,18,21.72,MX,1650419194
269,Ouadda,8.0777,22.4007,69.06,87,100,2.98,CF,1650419195
270,Talnakh,69.4865,88.3972,1.2,93,96,6.4,RU,1650419195
271,Comodoro Rivadavia,-45.8667,-67.5,55.26,41,0,8.05,AR,1650419195
272,Ramsar,36.9226,50.6426,53.04,94,0,2.3,IR,1650419196
273,Pochutla,15.7432,-96.4661,84.81,58,0,6.17,MX,1650419196
274,Constitución,-35.3333,-72.4167,56.39,93,100,4.97,CL,1650419156
275,Strathmore,51.0501,-113.3852,33.87,99,100,24.16,CA,1650419140
276,Gimli,50.6336,-96.9907,32.02,80,100,6.91,CA,1650419197
277,Soe,-9.8607,124.284,75.52,60,96,1.01,ID,1650419197
278,Kisangani,0.5167,25.2,71.28,99,100,4.54,CD,1650419197
279,Huarmey,-10.0681,-78.1522,68.0,84,16,8.55,PE,1650419198
280,Rome,43.2128,-75.4557,37.96,93,100,8.05,US,1650419033
281,Santa Cruz de Tenerife,28.4682,-16.2546,64.72,82,100,8.99,ES,1650419198
282,Parkes,-33.1333,148.1833,64.35,62,1,1.99,AU,1650419198
283,Potsdam,52.3989,13.0657,48.11,76,100,1.99,DE,1650419199
284,Puerto Escondido,15.85,-97.0667,81.91,66,23,6.78,MX,1650419199
285,Mahrīz,31.5917,54.4318,52.3,14,51,1.7,IR,1650419199
286,Mikhaylovka,50.06,43.2379,57.7,68,100,7.85,RU,1650419200
287,Yaan,7.3833,8.5667,76.41,79,100,4.18,NG,1650419200
288,Samarai,-10.6167,150.6667,84.09,71,100,14.7,PG,1650419200
289,Provideniya,64.3833,-173.3,35.71,60,0,7.0,RU,1650419201
290,Tuktoyaktuk,69.4541,-133.0374,12.2,92,100,5.75,CA,1650419201
291,Lüderitz,-26.6481,15.1594,74.93,28,0,8.3,NA,1650419201
292,Porto-Novo,6.4965,2.6036,80.42,83,100,3.89,BJ,1650419202
293,Gannan,47.9147,123.5031,74.61,13,100,11.74,CN,1650419202
294,Nizwá,22.9333,57.5333,75.61,14,3,2.55,OM,1650419202
295,Maniwaki,46.3834,-75.966,35.98,93,100,5.75,CA,1650419038
296,Vallenar,-28.5708,-70.7581,58.57,69,46,0.54,CL,1650419203
297,Saldanha,-33.0117,17.9442,70.45,35,70,12.21,ZA,1650419203
298,Gillette,44.2911,-105.5022,50.92,48,100,16.11,US,1650419204
299,Botou,38.0667,116.5667,73.17,25,0,11.68,CN,1650419204
300,Coahuayana Viejo,18.7333,-103.6833,72.88,87,2,1.39,MX,1650419204
301,Saint Paul Harbor,57.79,-152.4072,42.31,70,75,9.22,US,1650419205
302,Bundaberg,-24.85,152.35,82.69,71,40,12.66,AU,1650419205
303,Indramayu,-6.3264,108.32,80.06,73,100,5.48,ID,1650419205
304,Kamaishi,39.2667,141.8833,52.66,52,0,13.49,JP,1650419206
305,Presidencia Roque Sáenz Peña,-26.7852,-60.4388,67.1,73,1,8.95,AR,1650419206
306,Marevo,57.3146,32.0804,35.33,88,14,7.47,RU,1650419206
307,Itarema,-2.9248,-39.9167,77.18,88,96,5.88,BR,1650419207
308,Bobo-Dioulasso,11.1771,-4.2979,84.65,65,0,11.5,BF,1650419207
309,Santa Maria,-29.6842,-53.8069,60.1,94,0,2.3,BR,1650419186
310,Cabra,37.4725,-4.4421,48.06,82,74,8.1,ES,1650419207
311,Vytegra,61.0064,36.4481,34.5,98,100,1.95,RU,1650419208
312,Kuloy,61.0305,42.4925,33.3,99,100,2.84,RU,1650419208
313,Cam Ranh,11.9214,109.1591,84.16,65,40,8.05,VN,1650419208
314,Broome,42.2506,-75.833,37.65,82,100,23.02,US,1650419209
315,Mezen',65.8522,44.24,28.87,83,100,8.32,RU,1650419209
316,Gilgit,35.9221,74.3087,61.36,68,72,1.66,PK,1650419209
317,Aswān,24.0934,32.907,76.3,25,0,12.66,EG,1650419137
318,Tilichiki,60.4667,166.1,24.71,80,59,4.68,RU,1650419210
319,Mabaruma,8.2,-59.7833,73.94,86,66,3.6,GY,1650419210
320,Amahai,-3.3333,128.9167,86.74,65,48,3.4,ID,1650419210
321,Maningrida,-12.0667,134.2667,89.65,53,54,11.41,AU,1650419211
322,Ancud,-41.8697,-73.8203,47.23,84,2,4.43,CL,1650419200
323,Rawson,-43.3002,-65.1023,61.57,44,99,5.03,AR,1650419211
324,Terre Haute,39.4667,-87.4139,50.27,46,0,0.0,US,1650419102
325,Gachsaran,30.3586,50.7981,60.89,36,0,0.0,IR,1650419212
326,Atar,20.5169,-13.0499,80.82,21,23,5.77,MR,1650419212
327,George Town,5.4112,100.3354,84.13,87,20,3.44,MY,1650419212
328,Marystown,47.1666,-55.1483,33.85,100,100,5.01,CA,1650419213
329,Chadiza,-14.0678,32.4392,62.06,96,99,6.33,ZM,1650419213
330,Jasdan,22.0333,71.2,80.24,64,90,15.5,IN,1650419213
331,Singaparna,-7.3515,108.111,75.74,84,100,1.32,ID,1650419213
332,Staryy Nadym,65.6118,72.6842,31.77,98,100,14.23,RU,1650419214
333,Mossamedes,-15.1961,12.1522,75.63,78,100,3.27,AO,1650419214
334,Pathein,16.7833,94.7333,88.65,51,13,5.95,MM,1650419215
335,Quimperlé,47.8667,-3.55,47.12,84,0,6.91,FR,1650419215
336,Bac Lieu,9.285,105.7244,86.72,62,48,17.27,VN,1650419215
337,Hasaki,35.7333,140.8333,55.8,75,100,10.13,JP,1650419215
338,Skjervøy,70.0311,20.9714,41.99,77,62,11.05,NO,1650419216
339,Mlimba,-8.8,35.8167,70.63,94,89,2.01,TZ,1650419216
340,Cedar City,37.6775,-113.0619,67.17,10,0,23.02,US,1650418952
341,Ergani,38.2653,39.7621,49.46,85,70,3.36,TR,1650419217
342,Englehart,47.8169,-79.8664,34.36,60,75,26.46,CA,1650419192
343,Östersund,63.1792,14.6357,39.65,75,20,3.44,SE,1650419217
344,Bereket,39.2446,55.5154,61.68,55,0,10.13,TM,1650419217
345,Nabire,-3.3667,135.4833,87.01,65,99,4.97,ID,1650419218
346,San Rafael del Sur,11.8485,-86.4384,85.17,68,42,2.91,NI,1650419218
347,Øksfjord,70.2396,22.3479,39.27,80,89,7.27,NO,1650419218
348,Caraballeda,10.6112,-66.8522,83.37,80,81,8.41,VE,1650419219
349,Elko,41.0002,-115.5012,46.42,62,100,7.0,US,1650419104
350,Rocky Mountain House,52.3668,-114.9188,30.31,100,100,10.36,CA,1650419219
351,Tombouctou,20.0,-3.0,74.53,10,0,8.72,ML,1650419219
352,Chumikan,54.7183,135.315,31.62,95,100,6.51,RU,1650419220
353,Rupert,42.6191,-113.6772,48.15,40,0,10.36,US,1650419220
354,Kuah,6.3265,99.8432,84.18,84,20,2.3,MY,1650419220
355,Bellefontaine,40.3612,-83.7597,38.23,72,40,4.61,US,1650419221
356,Sept-Îles,50.2001,-66.3821,30.72,97,100,31.07,CA,1650419115
357,Puerto Maldonado,-12.6,-69.1833,75.99,72,62,0.49,PE,1650419221
358,São Gabriel da Cachoeira,-0.1303,-67.0892,73.02,98,100,1.9,BR,1650419221
359,Waingapu,-9.6567,120.2641,83.86,69,70,3.53,ID,1650419222
360,Lavrentiya,65.5833,-171.0,30.34,75,0,3.31,RU,1650419222
361,Meulaboh,4.1363,96.1285,78.71,84,93,4.68,ID,1650419222
362,Bagotville,-28.9833,153.4167,82.42,69,1,10.45,AU,1650419223
363,Ayagoz,47.9714,80.4392,41.59,36,94,13.24,KZ,1650419223
364,Tulsīpur,28.131,82.2973,83.3,29,0,4.29,NP,1650419224
365,Romans-sur-Isère,45.0464,5.0562,54.39,61,88,3.58,FR,1650419224
366,Taywarah,33.35,64.4167,39.15,42,1,2.68,AF,1650419224
367,Kang,-23.6752,22.7876,57.25,68,2,7.31,BW,1650419224
368,Zhuhai,22.2769,113.5678,67.86,83,40,9.22,CN,1650419225
369,Florø,61.5996,5.0328,41.97,93,55,4.61,NO,1650419225
370,Shingū,33.7333,135.9833,66.87,51,74,5.75,JP,1650419225
371,Siguiri,11.6667,-9.5,88.25,14,100,1.99,GN,1650419226
372,Agadir,30.4202,-9.5982,57.65,55,3,5.39,MA,1650419226
373,Iracoubo,5.4802,-53.2011,76.95,90,100,9.31,GF,1650419226
374,Zyryanka,65.75,150.85,27.61,79,16,13.91,RU,1650419227
375,Hachinohe,40.5,141.5,58.84,36,0,4.45,JP,1650419227
376,Okato,-39.2,173.8833,73.9,68,13,10.38,NZ,1650419228
377,Mariehamn,60.0973,19.9348,37.26,87,0,3.44,AX,1650419228
378,Tupik,54.4253,119.9327,29.97,75,100,13.35,RU,1650419228
379,Arauca,7.0847,-70.7591,80.56,78,40,3.44,CO,1650419229
380,Mitha Tiwana,32.2486,72.1108,84.56,28,73,6.29,PK,1650419229
381,Baláo,-2.9167,-79.8167,74.17,92,100,2.84,EC,1650419229
382,Datong,40.0936,113.2914,63.32,15,0,17.16,CN,1650419230
383,Nishihara,26.1842,127.7558,73.45,64,75,6.91,JP,1650419230
384,Tsaratanana,-16.7833,47.65,70.81,89,12,7.31,MG,1650419231
385,Agadez,19.75,10.25,73.31,13,5,5.84,NE,1650419231
386,Farafangana,-22.8167,47.8333,70.74,91,4,3.94,MG,1650419231
387,Kawalu,-7.3817,108.2082,76.23,85,100,1.34,ID,1650419232
388,Nome,64.5011,-165.4064,39.27,45,0,4.61,US,1650419112
389,Lianzhou,24.7811,112.3825,71.64,68,83,1.16,CN,1650419232
390,Sambava,-14.2667,50.1667,76.17,85,52,10.51,MG,1650419232
391,Mungwi,-10.1732,31.3694,59.09,99,91,3.47,ZM,1650419233
392,Joshīmath,30.5667,79.5667,65.98,41,1,3.62,IN,1650419233
393,Sakaraha,-22.9,44.5333,69.35,78,0,1.5,MG,1650419234
394,Hualmay,-11.0964,-77.6139,67.14,86,38,9.19,PE,1650419234
395,Gamba,-2.65,10.0,75.16,95,100,2.68,GA,1650419234
396,Krasnosel'kup,65.7,82.4667,14.59,83,100,10.38,RU,1650419235
397,Vangaindrano,-23.35,47.6,70.25,92,0,3.2,MG,1650419235
398,Xam Nua,20.4197,104.0439,70.57,68,99,1.59,LA,1650419235
399,Illapel,-31.6308,-71.1653,59.52,73,0,2.48,CL,1650419236
400,Vardø,70.3705,31.1107,36.37,92,100,13.53,NO,1650419119
401,Husavik,66.0449,-17.3389,32.59,91,84,6.13,IS,1650419236
402,Faanui,-16.4833,-151.75,80.89,72,2,6.53,PF,1650419236
403,Saint George,37.1041,-113.5841,81.19,7,0,32.21,US,1650418694
404,Amga,60.8953,131.9608,31.26,69,100,3.94,RU,1650419237
405,Klaksvík,62.2266,-6.589,41.92,79,3,11.23,FO,1650419237
406,Champerico,14.3,-91.9167,84.6,65,0,3.71,GT,1650419238
407,Olafsvik,64.8945,-23.7142,41.97,76,100,21.05,IS,1650419238
408,Clemencia,10.5665,-75.325,79.97,78,92,8.84,CO,1650419238
409,Sechura,-5.5569,-80.8222,69.4,75,63,16.26,PE,1650419239
410,Kungurtug,50.5994,97.5228,29.77,58,100,8.05,RU,1650419239
411,Manadhoo,5.7667,73.3833,84.02,72,61,10.6,MV,1650419239
412,Pingzhuang,42.0372,119.2889,73.63,11,13,17.78,CN,1650419240
413,Iquique,-20.2208,-70.1431,62.64,83,69,1.95,CL,1650419240
414,Durango,24.8333,-104.8333,73.13,22,3,16.55,MX,1650418980
415,Jiazi,22.8779,116.067,69.64,69,100,10.25,CN,1650419241
416,Caravelas,-17.7125,-39.2481,76.78,73,100,6.46,BR,1650419241
417,Hatillo,18.4863,-66.8254,78.98,86,87,1.99,PR,1650419241
418,Balkanabat,39.5108,54.3671,66.27,45,0,13.82,TM,1650419242
419,Balancán,17.8,-91.5333,81.59,59,44,8.68,MX,1650419242
420,Rudnyy,52.9594,63.1206,44.83,78,100,2.06,KZ,1650419243
421,Batagay,67.6333,134.6333,28.6,80,72,2.57,RU,1650419243
422,Khao Wong,16.7001,104.0902,80.6,53,85,9.31,TH,1650419243
423,Vayalār,9.7,76.3333,80.13,86,95,5.19,IN,1650419244
424,Semey,50.4111,80.2275,37.62,56,0,0.0,KZ,1650419244
425,Mahajanga,-15.7167,46.3167,75.22,100,20,2.3,MG,1650419244
426,Awjilah,29.1081,21.2869,56.19,62,0,7.18,LY,1650419244
427,Zapolyarnyy,69.4154,30.8136,34.88,96,100,4.34,RU,1650419245
428,Russell,32.3502,-85.1999,56.8,80,0,0.0,US,1650419245
429,Miguelópolis,-20.1794,-48.0319,76.82,72,37,4.63,BR,1650419246
430,Baykit,61.67,96.37,21.2,80,99,9.86,RU,1650419246
431,Imeni Poliny Osipenko,52.4201,136.4853,41.38,85,100,4.54,RU,1650419246
432,Koungou,-12.7336,45.2042,82.11,83,40,11.5,YT,1650419246
433,Sitka,57.0531,-135.33,53.49,32,40,8.05,US,1650419247
434,Chapais,49.7834,-74.8492,29.98,97,100,7.99,CA,1650419247
435,Chiang Khong,20.2613,100.4046,81.18,68,37,0.27,TH,1650419248
436,Jefferson City,38.5767,-92.1735,52.65,59,99,7.45,US,1650419248
437,La Ronge,55.1001,-105.2842,35.85,60,75,14.97,CA,1650419248
438,Kununurra,-15.7667,128.7333,91.38,52,29,9.22,AU,1650419216
439,Kirakira,-10.4544,161.9205,84.2,73,99,6.49,SB,1650419249
440,Novopokrovka,49.8425,36.5477,46.31,90,100,5.06,UA,1650419249
441,São Miguel do Araguaia,-13.275,-50.1628,76.71,72,88,3.24,BR,1650419249
442,Labuhan,-6.8844,112.2051,79.45,83,100,3.42,ID,1650419250
443,Wausau,44.9591,-89.6301,44.51,49,0,3.44,US,1650419103
444,Taltal,-25.4,-70.4833,61.83,81,63,4.5,CL,1650419250
445,Wałcz,53.2779,16.4712,43.23,79,100,7.99,PL,1650419250
446,Örnsköldsvik,63.2909,18.7153,29.35,100,16,2.3,SE,1650419251
447,Balikpapan,-1.2675,116.8289,79.79,89,20,2.3,ID,1650419251
448,Asău,46.4333,26.4,38.32,87,100,3.6,RO,1650419251
449,Moose Factory,51.2585,-80.6094,24.8,74,0,12.66,CA,1650419252
450,Aklavik,68.2191,-135.0107,21.63,84,18,7.27,CA,1650419252
451,Maracaçumé,-2.0428,-45.9592,73.8,97,100,3.02,BR,1650419252
452,Juanjuí,-7.1779,-76.7314,72.09,94,62,2.13,PE,1650419253
453,Rio Grande,-32.035,-52.0986,65.34,90,1,10.31,BR,1650419253
454,Lappeenranta,61.0587,28.1887,33.85,86,40,3.44,FI,1650419253
455,Grand Gaube,-20.0064,57.6608,78.39,88,12,5.01,MU,1650419254
456,Lang Son,21.8333,106.7333,71.17,64,100,2.68,VN,1650419254
457,Praia da Vitória,38.7333,-27.0667,59.76,88,75,6.89,PT,1650419254
458,San Vicente,-26.6167,-54.1333,56.84,90,0,2.95,AR,1650419254
459,Cayenne,4.9333,-52.3333,76.08,1,100,4.0,GF,1650419255
460,Afikpo,5.8931,7.9374,74.61,90,100,3.67,NG,1650419255
461,Waipawa,-41.4122,175.5153,69.94,61,22,4.38,NZ,1650419255
462,Launceston,-41.45,147.1667,66.61,58,18,16.11,AU,1650419256
463,Astoria,46.1879,-123.8313,49.95,84,20,10.36,US,1650419026
464,Antibes,43.5624,7.1278,58.48,88,75,8.05,FR,1650419256
465,Bud,39.447,-86.1758,46.42,69,26,2.93,US,1650419256
466,Villanueva de la Serena,38.9766,-5.7974,45.95,71,96,18.95,ES,1650419051
467,Opuwo,-18.0607,13.84,67.35,46,100,8.59,NA,1650419257
468,Revda,56.801,59.9303,33.75,100,100,2.86,RU,1650419257
469,Poço das Trincheiras,-9.3125,-37.2856,71.89,90,7,4.85,BR,1650419258
470,Rivne,50.6231,26.2274,31.19,91,42,8.32,UA,1650419258
471,Norheimsund,60.3709,6.1456,44.22,72,5,6.24,NO,1650419258
472,Bétaré Oya,5.6,14.0833,69.58,89,100,1.07,CM,1650419259
473,Arrondissement de Lorient,47.8333,-3.25,46.89,84,0,6.91,FR,1650419259
474,Hammerfest,70.6634,23.6821,39.65,81,0,6.91,NO,1650419259
475,Marsassoum,12.8275,-15.9806,76.33,54,47,6.44,SN,1650419260
476,Atarfe,37.2248,-3.6869,53.56,88,100,4.61,ES,1650419260
477,Clyde River,70.4692,-68.5914,-9.17,77,100,4.61,CA,1650419260
478,Kandrian,-6.2167,149.55,82.53,74,100,3.11,PG,1650419261
479,Vila Franca do Campo,37.7167,-25.4333,61.2,68,65,7.78,PT,1650419040
480,Kovdor,67.5662,30.4758,34.77,95,100,2.06,RU,1650419261
481,Xai-Xai,-25.0519,33.6442,70.81,77,92,14.97,MZ,1650419261
482,Nadadores,27.05,-101.6,84.24,54,100,9.04,MX,1650419262
483,Bathsheba,13.2167,-59.5167,79.41,73,40,21.85,BB,1650419262
484,Labytnangi,66.6572,66.4183,25.41,80,82,12.3,RU,1650419262
485,Matara,5.9485,80.5353,81.01,82,94,6.02,LK,1650419263
486,Atlatlahucan,18.9333,-98.9,64.87,71,100,6.8,MX,1650419263
487,Oistins,13.0667,-59.5333,78.89,73,40,21.85,BB,1650419263
488,Coquimbo,-29.9533,-71.3436,56.93,88,0,6.91,CL,1650418996
489,Ko Samui,9.5357,99.9357,84.11,79,40,4.61,TH,1650419264
490,Rocha,-34.4833,-54.3333,60.46,91,82,7.11,UY,1650419068
491,Leshukonskoye,64.8989,45.7622,29.89,93,92,8.34,RU,1650419264
492,Omsukchan,62.5333,155.8,19.08,78,96,7.92,RU,1650419265
493,‘Āhuimanu,21.4447,-157.8378,78.51,66,100,19.57,US,1650419265
494,Flin Flon,54.7682,-101.865,28.8,81,100,6.93,CA,1650419265
495,Livingston,55.9029,-3.5226,44.11,88,0,4.61,GB,1650419266
496,Celica,-4.1167,-79.95,60.46,97,100,0.96,EC,1650419266
497,Vanavara,60.34,102.2797,27.63,87,100,11.39,RU,1650419266
498,Bollnäs,61.3482,16.3946,41.16,73,9,1.01,SE,1650419266
499,Cockburn Town,21.4612,-71.1419,78.96,80,57,12.71,TC,1650419261
500,Guarenas,10.4674,-66.6066,79.65,96,81,1.97,VE,1650419267
501,Margate,51.3813,1.3862,50.31,88,100,3.0,GB,1650419267
502,Mitchell,43.7094,-98.0298,46.38,38,0,28.77,US,1650419268
503,Tubmanburg,6.8708,-10.8172,77.59,92,100,2.3,LR,1650419268
504,Gazojak,41.1875,61.4036,59.85,87,100,3.15,TM,1650419055
505,Mandera,3.9366,41.867,80.62,72,39,11.52,KE,1650419268
506,Hīt,33.6416,42.8251,70.86,34,98,21.56,IQ,1650419269
507,Chunskiy,56.0815,99.6342,35.37,78,100,13.2,RU,1650419269
508,Nakasongola,1.3089,32.4564,65.77,98,100,3.96,UG,1650419269
509,Pamyat' Parizhskoy Kommuny,56.1048,44.4952,35.55,98,82,6.8,RU,1650419270
510,Pano Aqil,27.8569,69.1116,75.09,32,0,6.29,PK,1650419270
511,Soyo,-6.1349,12.3689,75.99,92,100,9.44,AO,1650419270
512,Mehamn,71.0357,27.8492,37.76,93,100,8.48,NO,1650419063
513,Ormond Beach,29.2858,-81.0559,64.99,63,0,10.36,US,1650419271
514,Atherton,53.5237,-2.4935,47.89,83,16,3.96,GB,1650419271
515,Saint-Estève,42.7131,2.843,54.82,82,100,4.61,FR,1650419271
516,Contamana,-7.3333,-75.0167,72.73,98,100,2.04,PE,1650419272
517,Dongsheng,39.8161,109.9776,56.53,18,43,21.74,CN,1650419272
518,Leningradskiy,69.3833,178.4167,26.82,87,94,7.47,RU,1650419201
519,San Cristobal,7.7669,-72.225,69.98,73,100,1.16,VE,1650419273
520,Kawanoechō,34.0167,133.5667,68.58,49,0,4.65,JP,1650419273
521,Lata,40.1629,-8.3327,47.07,74,33,8.72,PT,1650419273
522,Hopkinsville,36.8656,-87.4886,51.84,82,1,3.94,US,1650419116
523,Namwala,-15.7504,26.4384,63.99,92,98,7.0,ZM,1650419274
524,Ati,13.2154,18.3353,84.11,19,20,11.9,TD,1650419274
525,Batouri,4.4333,14.3667,69.39,97,100,2.89,CM,1650419274
526,Philadelphia,39.9523,-75.1638,46.02,53,20,16.11,US,1650419020
527,Perth,-31.9333,115.8333,69.19,67,20,18.41,AU,1650419275
528,Ceres,37.5949,-120.9577,68.32,41,0,3.44,US,1650419275
529,Khokhlovo,59.1492,37.3998,31.95,96,7,5.5,RU,1650419275
530,Igrim,63.1906,64.4162,31.64,91,29,6.76,RU,1650419276
531,Riyadh,24.6877,46.7219,73.54,15,11,7.0,SA,1650419171
532,Deputatsky,69.3,139.9,15.28,84,90,3.47,RU,1650419276
533,Mackay,-21.15,149.2,82.69,74,72,14.97,AU,1650419176
534,Isangel,-19.55,169.2667,83.48,71,16,6.98,VU,1650419277
535,Wanxian,30.8039,108.3897,70.74,60,36,6.22,CN,1650419277
536,Eldorado,-23.7869,-54.2836,64.08,87,0,3.06,BR,1650419278
537,Mumford,5.2618,-0.759,80.06,84,100,7.0,GH,1650419278
538,Bom Jardim,-7.7958,-35.5872,70.99,96,14,3.85,BR,1650419278
539,Puerto Boyacá,5.9758,-74.5885,70.74,99,100,2.8,CO,1650419279
540,Buala,-8.145,159.5921,84.76,72,93,7.31,SB,1650419279
541,Lompoc,34.6391,-120.4579,64.54,87,75,15.99,US,1650419261
542,Kohat,33.582,71.4493,71.67,41,90,1.12,PK,1650419279
543,Gbarnga,6.9956,-9.4722,74.01,94,100,1.41,LR,1650419280
544,Ouésso,1.6136,16.0517,70.54,98,100,2.8,CG,1650419280
545,Auki,-8.7676,160.7034,86.41,64,93,3.67,SB,1650419280
546,Araouane,18.9048,-3.5265,75.29,10,6,8.84,ML,1650419281
547,Māngrol,21.1167,70.1167,80.06,73,91,12.39,IN,1650419281
548,Mbeya,-8.9,33.45,56.28,96,100,5.28,TZ,1650419281
549,Bitkine,11.9801,18.2138,82.38,18,75,4.72,TD,1650419282
550,Narsaq,60.9167,-46.05,32.22,43,0,11.52,GL,1650419282
551,Manoel Urbano,-8.8389,-69.2597,72.99,89,86,2.19,BR,1650419282
552,Crixás,-14.5489,-49.9692,74.16,73,33,2.55,BR,1650419283
553,Haines Junction,60.7522,-137.5108,40.95,28,98,5.75,CA,1650419283
554,Pilar,-9.5972,-35.9567,73.33,93,8,1.54,BR,1650419283
555,Kuusamo,65.9667,29.1833,33.84,86,0,3.44,FI,1650419284
556,Nakhon Si Thammarat,8.25,100.0,89.46,82,100,2.33,TH,1650419284
557,Kruisfontein,-34.0033,24.7314,57.88,90,3,5.32,ZA,1650419284
558,Jumla,29.2747,82.1838,61.21,40,1,2.24,NP,1650419285
559,Killybegs,54.6333,-8.45,43.27,87,9,4.43,IE,1650419285
560,Poum,-20.2333,164.0167,78.28,79,11,5.7,NC,1650419285
561,Baruun-Urt,46.6806,113.2792,44.96,57,100,24.79,MN,1650419286
562,Soro,21.2881,86.6858,84.81,71,76,12.17,IN,1650419286
563,Horki,54.2861,30.9842,44.69,94,100,17.38,BY,1650419286
564,Salaverry,-8.2333,-78.9667,62.98,83,7,8.05,PE,1650419287
565,Ulaanbaatar,47.9077,106.8832,37.53,60,40,15.66,MN,1650419065
566,Tizimín,21.15,-88.15,75.79,73,0,8.99,MX,1650419233
567,Newala,-10.9431,39.2787,64.45,98,11,2.08,TZ,1650419287
568,Sarakhs,36.5449,61.1577,51.94,100,54,2.3,IR,1650419288
569,Lagos,6.5833,3.75,80.92,89,100,2.77,NG,1650419151
570,Mitú,1.1983,-70.1733,72.46,98,100,1.95,CO,1650419288
